header: 
  seq: 27249
  stamp: 
    secs: 545
    nsecs: 604000000
  frame_id: ''
name: 
  - joint_1
  - joint_2
  - joint_3
  - joint_4
  - joint_5
  - joint_6
position: [9.044898714449801e-07, 0.00011711383429524602, 2.592349336527633e-05, -3.97232505555678e-07, 1.6639683950714357e-06, -4.8988786360837366e-08]
velocity: [1.6742729731605478e-12, 0.0003724305475586429, 8.243595712508915e-05, -7.764319220908769e-14, 5.2913307471414675e-06, 5.813757194512098e-14]
effort: [0.0, 0.0, 0.0, 0.0, 0.0, 0.0]
---
header: 
  seq: 27250
  stamp: 
    secs: 545
    nsecs: 624000000
  frame_id: ''
name: 
  - joint_1
  - joint_2
  - joint_3
  - joint_4
  - joint_5
  - joint_6
position: [9.044898714449801e-07, 0.00011711383429435784, 2.592349336527633e-05, -3.97232505555678e-07, 1.6639683950714357e-06, -4.8988786360837366e-08]
velocity: [1.6742729731076371e-12, 0.00037243054756415063, 8.243595712595657e-05, -7.764319220177324e-14, 5.291330747193672e-06, 5.813757193958059e-14]
effort: [0.0, 0.0, 0.0, 0.0, 0.0, 0.0]
---
header: 
  seq: 27251
  stamp: 
    secs: 545
    nsecs: 644000000
  frame_id: ''
name: 
  - joint_1
  - joint_2
  - joint_3
  - joint_4
  - joint_5
  - joint_6
position: [9.044898714449801e-07, 0.00011711383429524602, 2.592349336527633e-05, -3.97232505555678e-07, 1.663968395959614e-06, -4.8988786360837366e-08]
velocity: [1.6742729740852808e-12, 0.0003724305475679365, 8.243595712696439e-05, -7.764319224284635e-14, 5.291330747259591e-06, 5.813757197036906e-14]
effort: [0.0, 0.0, 0.0, 0.0, 0.0, 0.0]
---
header: 
  seq: 27252
  stamp: 
    secs: 545
    nsecs: 664000000
  frame_id: ''
name: 
  - joint_1
  - joint_2
  - joint_3
  - joint_4
  - joint_5
  - joint_6
position: [9.044898714449801e-07, 0.00011711383429524602, 2.592349336527633e-05, -3.97232505555678e-07, 1.663968395959614e-06, -4.8988785472658947e-08]
velocity: [1.6742729725559876e-12, 0.00037243054756337933, 8.243595712590024e-05, -7.764319216178463e-14, 5.2913307471910156e-06, 5.813757190975077e-14]
effort: [0.0, 0.0, 0.0, 0.0, 0.0, 0.0]
---
header: 
  seq: 27253
  stamp: 
    secs: 545
    nsecs: 684000000
  frame_id: ''
name: 
  - joint_1
  - joint_2
  - joint_3
  - joint_4
  - joint_5
  - joint_6
position: [9.044898714449801e-07, 0.00011711383429435784, 2.592349336527633e-05, -3.97232505555678e-07, 1.663968395959614e-06, -4.8988786360837366e-08]
velocity: [1.6742729728918928e-12, 0.0003724305475640584, 8.243595712569441e-05, -7.764319218344805e-14, 5.291330747174265e-06, 5.813757192586632e-14]
effort: [0.0, 0.0, 0.0, 0.0, 0.0, 0.0]
---
header: 
  seq: 5400
  stamp: 
    secs: 545
    nsecs: 696000000
  frame_id: ''
name: 
  - joint_1
  - joint_2
  - joint_3
  - joint_4
  - joint_5
  - joint_6
  - joint_cylinder
  - joint_piston
position: [9.044898714449801e-07, 0.00011711383429435784, 2.592349336527633e-05, -3.97232505555678e-07, 1.663968395959614e-06, -4.8988786360837366e-08, -2.927845857358946e-05, -0.0001463922928679473]
velocity: [1.6742729728918928e-12, 0.0003724305475640584, 8.243595712569441e-05, -7.764319218344805e-14, 5.291330747174265e-06, 5.813757192586632e-14, -9.31076368910146e-05, -0.000465538184455073]
effort: [0.0, 0.0, 0.0, 0.0, 0.0, 0.0, 0.0, 0.0]
---
header: 
  seq: 27254
  stamp: 
    secs: 545
    nsecs: 704000000
  frame_id: ''
name: 
  - joint_1
  - joint_2
  - joint_3
  - joint_4
  - joint_5
  - joint_6
position: [9.044898714449801e-07, 0.00011711383429524602, 2.592349336527633e-05, -3.97232505555678e-07, 1.663968395959614e-06, -4.8988786360837366e-08]
velocity: [1.674272973353785e-12, 0.00037243054756337104, 8.243595712592908e-05, -7.764319224628119e-14, 5.29133074719313e-06, 5.81375719727505e-14]
effort: [0.0, 0.0, 0.0, 0.0, 0.0, 0.0]
---
header: 
  seq: 27255
  stamp: 
    secs: 545
    nsecs: 724000000
  frame_id: ''
name: 
  - joint_1
  - joint_2
  - joint_3
  - joint_4
  - joint_5
  - joint_6
position: [9.044898714449801e-07, 0.00011711383429524602, 2.592349336438815e-05, -3.972325046674996e-07, 1.6639683950714357e-06, -4.8988786360837366e-08]
velocity: [1.6742729748690359e-12, 0.0003724305475557572, 8.243595712447067e-05, -7.76431922519044e-14, 5.29133074710184e-06, 5.813757197724596e-14]
effort: [0.0, 0.0, 0.0, 0.0, 0.0, 0.0]
---
header: 
  seq: 27256
  stamp: 
    secs: 545
    nsecs: 744000000
  frame_id: ''
name: 
  - joint_1
  - joint_2
  - joint_3
  - joint_4
  - joint_5
  - joint_6
position: [9.044898714449801e-07, 0.00011711383429524602, 2.592349336438815e-05, -3.97232505555678e-07, 1.6639683950714357e-06, -4.8988786360837366e-08]
velocity: [1.6742729740171416e-12, 0.00037243054756679636, 8.243595712679715e-05, -7.764319223056779e-14, 5.291330747249996e-06, 5.81375719612074e-14]
effort: [0.0, 0.0, 0.0, 0.0, 0.0, 0.0]
---
header: 
  seq: 27257
  stamp: 
    secs: 545
    nsecs: 764000000
  frame_id: ''
name: 
  - joint_1
  - joint_2
  - joint_3
  - joint_4
  - joint_5
  - joint_6
position: [9.044898714449801e-07, 0.00011711383429524602, 2.592349336527633e-05, -3.97232505555678e-07, 1.6639683950714357e-06, -4.8988786360837366e-08]
velocity: [1.6742729732378264e-12, 0.0003724305475654115, 8.243595712645124e-05, -7.764319221359169e-14, 5.291330747227228e-06, 5.81375719483679e-14]
effort: [0.0, 0.0, 0.0, 0.0, 0.0, 0.0]
---
header: 
  seq: 27258
  stamp: 
    secs: 545
    nsecs: 784000000
  frame_id: ''
name: 
  - joint_1
  - joint_2
  - joint_3
  - joint_4
  - joint_5
  - joint_6
position: [9.044898714449801e-07, 0.00011711383429435784, 2.592349336527633e-05, -3.97232505555678e-07, 1.6639683950714357e-06, -4.8988786360837366e-08]
velocity: [1.6742729720492018e-12, 0.0003724305475691252, 8.243595712697252e-05, -7.764319215399118e-14, 5.291330747257857e-06, 5.813757190385019e-14]
effort: [0.0, 0.0, 0.0, 0.0, 0.0, 0.0]
---
header: 
  seq: 5401
  stamp: 
    secs: 545
    nsecs: 794000000
  frame_id: ''
name: 
  - joint_1
  - joint_2
  - joint_3
  - joint_4
  - joint_5
  - joint_6
  - joint_cylinder
  - joint_piston
position: [9.044898714449801e-07, 0.00011711383429435784, 2.592349336527633e-05, -3.97232505555678e-07, 1.6639683950714357e-06, -4.8988786360837366e-08, -2.927845857358946e-05, -0.0001463922928679473]
velocity: [1.6742729720492018e-12, 0.0003724305475691252, 8.243595712697252e-05, -7.764319215399118e-14, 5.291330747257857e-06, 5.813757190385019e-14, -9.31076368922813e-05, -0.00046553818446140653]
effort: [0.0, 0.0, 0.0, 0.0, 0.0, 0.0, 0.0, 0.0]
---
header: 
  seq: 27259
  stamp: 
    secs: 545
    nsecs: 804000000
  frame_id: ''
name: 
  - joint_1
  - joint_2
  - joint_3
  - joint_4
  - joint_5
  - joint_6
position: [9.044898714449801e-07, 0.00011711383429524602, 2.592349336527633e-05, -3.97232505555678e-07, 1.663968395959614e-06, -4.8988786360837366e-08]
velocity: [1.674272973075917e-12, 0.0003724305475646183, 8.243595712605095e-05, -7.764319220724688e-14, 5.2913307471995265e-06, 5.813757194352862e-14]
effort: [0.0, 0.0, 0.0, 0.0, 0.0, 0.0]
---
header: 
  seq: 27260
  stamp: 
    secs: 545
    nsecs: 824000000
  frame_id: ''
name: 
  - joint_1
  - joint_2
  - joint_3
  - joint_4
  - joint_5
  - joint_6
position: [9.044898714449801e-07, 0.00011711383429524602, 2.592349336527633e-05, -3.97232505555678e-07, 1.663968395959614e-06, -4.8988786360837366e-08]
velocity: [1.6742729725268134e-12, 0.0003724305475620093, 8.243595712579621e-05, -7.764319218995724e-14, 5.291330747186408e-06, 5.813757193055139e-14]
effort: [0.0, 0.0, 0.0, 0.0, 0.0, 0.0]
---
header: 
  seq: 27261
  stamp: 
    secs: 545
    nsecs: 844000000
  frame_id: ''
name: 
  - joint_1
  - joint_2
  - joint_3
  - joint_4
  - joint_5
  - joint_6
position: [9.044898714449801e-07, 0.00011711383429524602, 2.592349336527633e-05, -3.97232505555678e-07, 1.663968395959614e-06, -4.8988786360837366e-08]
velocity: [1.6742729724878634e-12, 0.00037243054756584665, 8.243595712640489e-05, -7.764319215899344e-14, 5.291330747222945e-06, 5.813757190743463e-14]
effort: [0.0, 0.0, 0.0, 0.0, 0.0, 0.0]
---
header: 
  seq: 27262
  stamp: 
    secs: 545
    nsecs: 864000000
  frame_id: ''
name: 
  - joint_1
  - joint_2
  - joint_3
  - joint_4
  - joint_5
  - joint_6
position: [9.044898714449801e-07, 0.00011711383429524602, 2.592349336527633e-05, -3.97232505555678e-07, 1.663968395959614e-06, -4.8988786360837366e-08]
velocity: [1.674272973401221e-12, 0.0003724305475598453, 8.243595712522517e-05, -7.764319221616576e-14, 5.2913307471489485e-06, 5.813757195030396e-14]
effort: [0.0, 0.0, 0.0, 0.0, 0.0, 0.0]
---
header: 
  seq: 27263
  stamp: 
    secs: 545
    nsecs: 884000000
  frame_id: ''
name: 
  - joint_1
  - joint_2
  - joint_3
  - joint_4
  - joint_5
  - joint_6
position: [9.044898714449801e-07, 0.00011711383429435784, 2.592349336527633e-05, -3.97232505555678e-07, 1.6639683950714357e-06, -4.8988786360837366e-08]
velocity: [1.6742729728725708e-12, 0.0003724305475620313, 8.243595712557027e-05, -7.764319218536241e-14, 5.291330747169494e-06, 5.813757192715828e-14]
effort: [0.0, 0.0, 0.0, 0.0, 0.0, 0.0]
---
header: 
  seq: 5402
  stamp: 
    secs: 545
    nsecs: 894000000
  frame_id: ''
name: 
  - joint_1
  - joint_2
  - joint_3
  - joint_4
  - joint_5
  - joint_6
  - joint_cylinder
  - joint_piston
position: [9.044898714449801e-07, 0.00011711383429435784, 2.592349336527633e-05, -3.97232505555678e-07, 1.6639683950714357e-06, -4.8988786360837366e-08, -2.927845857358946e-05, -0.0001463922928679473]
velocity: [1.6742729728725708e-12, 0.0003724305475620313, 8.243595712557027e-05, -7.764319218536241e-14, 5.291330747169494e-06, 5.813757192715828e-14, -9.310763689050782e-05, -0.0004655381844525391]
effort: [0.0, 0.0, 0.0, 0.0, 0.0, 0.0, 0.0, 0.0]
---
header: 
  seq: 27264
  stamp: 
    secs: 545
    nsecs: 904000000
  frame_id: ''
name: 
  - joint_1
  - joint_2
  - joint_3
  - joint_4
  - joint_5
  - joint_6
position: [9.044898714449801e-07, 0.00011711383429524602, 2.592349336527633e-05, -3.97232505555678e-07, 1.6639683950714357e-06, -4.8988786360837366e-08]
velocity: [1.674272973549496e-12, 0.00037243054756622536, 8.243595712646717e-05, -7.764319223869202e-14, 5.2913307472268484e-06, 5.813757196702693e-14]
effort: [0.0, 0.0, 0.0, 0.0, 0.0, 0.0]
---
header: 
  seq: 27265
  stamp: 
    secs: 545
    nsecs: 924000000
  frame_id: ''
name: 
  - joint_1
  - joint_2
  - joint_3
  - joint_4
  - joint_5
  - joint_6
position: [9.044898714449801e-07, 0.00011711383429524602, 2.592349336438815e-05, -3.97232505555678e-07, 1.6639683950714357e-06, -4.8988786360837366e-08]
velocity: [1.6742729689147303e-12, 0.00037243054756682476, 8.243595712674028e-05, -7.764319194354287e-14, 5.291330747245659e-06, 5.813757174633723e-14]
effort: [0.0, 0.0, 0.0, 0.0, 0.0, 0.0]
---
header: 
  seq: 27266
  stamp: 
    secs: 545
    nsecs: 944000000
  frame_id: ''
name: 
  - joint_1
  - joint_2
  - joint_3
  - joint_4
  - joint_5
  - joint_6
position: [9.044898714449801e-07, 0.00011711383429524602, 2.592349336527633e-05, -3.97232505555678e-07, 1.6639683950714357e-06, -4.8988786360837366e-08]
velocity: [1.6742729687050245e-12, 0.0003724305475710793, 8.24359571276335e-05, -7.76431919279676e-14, 5.291330747302417e-06, 5.813757173465844e-14]
effort: [0.0, 0.0, 0.0, 0.0, 0.0, 0.0]
---
header: 
  seq: 27267
  stamp: 
    secs: 545
    nsecs: 964000000
  frame_id: ''
name: 
  - joint_1
  - joint_2
  - joint_3
  - joint_4
  - joint_5
  - joint_6
position: [9.044898714449801e-07, 0.00011711383429524602, 2.592349336527633e-05, -3.97232505555678e-07, 1.663968395959614e-06, -4.8988786360837366e-08]
velocity: [1.6742729693798187e-12, 0.00037243054756098704, 8.243595712540785e-05, -7.764319198037297e-14, 5.2913307471597905e-06, 5.81375717738205e-14]
effort: [0.0, 0.0, 0.0, 0.0, 0.0, 0.0]
---
header: 
  seq: 27268
  stamp: 
    secs: 545
    nsecs: 984000000
  frame_id: ''
name: 
  - joint_1
  - joint_2
  - joint_3
  - joint_4
  - joint_5
  - joint_6
position: [9.044898714449801e-07, 0.00011711383429435784, 2.592349336527633e-05, -3.9723250644385644e-07, 1.663968395959614e-06, -4.8988786360837366e-08]
velocity: [1.6742729692994157e-12, 0.00037243054756237417, 8.243595712560057e-05, -7.76431919388667e-14, 5.291330747171175e-06, 5.813757174290388e-14]
effort: [0.0, 0.0, 0.0, 0.0, 0.0, 0.0]
---
header: 
  seq: 5403
  stamp: 
    secs: 545
    nsecs: 994000000
  frame_id: ''
name: 
  - joint_1
  - joint_2
  - joint_3
  - joint_4
  - joint_5
  - joint_6
  - joint_cylinder
  - joint_piston
position: [9.044898714449801e-07, 0.00011711383429435784, 2.592349336527633e-05, -3.9723250644385644e-07, 1.663968395959614e-06, -4.8988786360837366e-08, -2.927845857358946e-05, -0.0001463922928679473]
velocity: [1.6742729692994157e-12, 0.00037243054756237417, 8.243595712560057e-05, -7.76431919388667e-14, 5.291330747171175e-06, 5.813757174290388e-14, -9.310763689059354e-05, -0.0004655381844529677]
effort: [0.0, 0.0, 0.0, 0.0, 0.0, 0.0, 0.0, 0.0]
---
header: 
  seq: 27269
  stamp: 
    secs: 546
    nsecs:   4000000
  frame_id: ''
name: 
  - joint_1
  - joint_2
  - joint_3
  - joint_4
  - joint_5
  - joint_6
position: [9.044898714449801e-07, 0.00011711383429524602, 2.592349336527633e-05, -3.97232505555678e-07, 1.663968395959614e-06, -4.8988786360837366e-08]
velocity: [1.6742729693420864e-12, 0.0003724305475632425, 8.243595712595592e-05, -7.764319197052035e-14, 5.291330747195569e-06, 5.81375717665288e-14]
effort: [0.0, 0.0, 0.0, 0.0, 0.0, 0.0]
---
header: 
  seq: 27270
  stamp: 
    secs: 546
    nsecs:  24000000
  frame_id: ''
name: 
  - joint_1
  - joint_2
  - joint_3
  - joint_4
  - joint_5
  - joint_6
position: [9.044898714449801e-07, 0.00011711383429524602, 2.592349336527633e-05, -3.97232505555678e-07, 1.663968395959614e-06, -4.8988786360837366e-08]
velocity: [1.6742729693054998e-12, 0.0003724305475567958, 8.243595712453561e-05, -7.764319196500225e-14, 5.29133074710493e-06, 5.813757176252644e-14]
effort: [0.0, 0.0, 0.0, 0.0, 0.0, 0.0]
---
header: 
  seq: 27271
  stamp: 
    secs: 546
    nsecs:  44000000
  frame_id: ''
name: 
  - joint_1
  - joint_2
  - joint_3
  - joint_4
  - joint_5
  - joint_6
position: [9.044898714449801e-07, 0.00011711383429435784, 2.592349336527633e-05, -3.97232505555678e-07, 1.6639683950714357e-06, -4.8988786360837366e-08]
velocity: [1.6742729643001409e-12, 0.00037243054756444277, 8.243595712602775e-05, -7.76431913857687e-14, 5.2913307471982255e-06, 5.813757133004057e-14]
effort: [0.0, 0.0, 0.0, 0.0, 0.0, 0.0]
---
header: 
  seq: 27272
  stamp: 
    secs: 546
    nsecs:  64000000
  frame_id: ''
name: 
  - joint_1
  - joint_2
  - joint_3
  - joint_4
  - joint_5
  - joint_6
position: [9.044898714449801e-07, 0.00011711383429524602, 2.592349336527633e-05, -3.97232505555678e-07, 1.6639683950714357e-06, -4.8988786360837366e-08]
velocity: [1.6742729635146131e-12, 0.0003724305475663761, 8.243595712651737e-05, -7.764319135339484e-14, 5.291330747230155e-06, 5.813757130574391e-14]
effort: [0.0, 0.0, 0.0, 0.0, 0.0, 0.0]
---
header: 
  seq: 27273
  stamp: 
    secs: 546
    nsecs:  84000000
  frame_id: ''
name: 
  - joint_1
  - joint_2
  - joint_3
  - joint_4
  - joint_5
  - joint_6
position: [9.044898714449801e-07, 0.00011711383429524602, 2.592349336527633e-05, -3.97232505555678e-07, 1.6639683950714357e-06, -4.8988786360837366e-08]
velocity: [1.6742729644411617e-12, 0.00037243054756489754, 8.243595712638678e-05, -7.76431914028147e-14, 5.291330747223813e-06, 5.81375713426814e-14]
effort: [0.0, 0.0, 0.0, 0.0, 0.0, 0.0]
---
header: 
  seq: 5404
  stamp: 
    secs: 546
    nsecs:  94000000
  frame_id: ''
name: 
  - joint_1
  - joint_2
  - joint_3
  - joint_4
  - joint_5
  - joint_6
  - joint_cylinder
  - joint_piston
position: [9.044898714449801e-07, 0.00011711383429524602, 2.592349336527633e-05, -3.97232505555678e-07, 1.6639683950714357e-06, -4.8988786360837366e-08, -2.9278458573811506e-05, -0.00014639229286905753]
velocity: [1.6742729644411617e-12, 0.00037243054756489754, 8.243595712638678e-05, -7.76431914028147e-14, 5.291330747223813e-06, 5.81375713426814e-14, -9.310763689122439e-05, -0.0004655381844561219]
effort: [0.0, 0.0, 0.0, 0.0, 0.0, 0.0, 0.0, 0.0]
---
header: 
  seq: 27274
  stamp: 
    secs: 546
    nsecs: 104000000
  frame_id: ''
name: 
  - joint_1
  - joint_2
  - joint_3
  - joint_4
  - joint_5
  - joint_6
position: [9.044898714449801e-07, 0.00011711383429524602, 2.592349336527633e-05, -3.97232505555678e-07, 1.6639683950714357e-06, -4.8988786360837366e-08]
velocity: [1.6742729647465317e-12, 0.00037243054756517044, 8.243595712640716e-05, -7.764319140757175e-14, 5.2913307472247885e-06, 5.813757134627727e-14]
effort: [0.0, 0.0, 0.0, 0.0, 0.0, 0.0]
---
header: 
  seq: 27275
  stamp: 
    secs: 546
    nsecs: 124000000
  frame_id: ''
name: 
  - joint_1
  - joint_2
  - joint_3
  - joint_4
  - joint_5
  - joint_6
position: [9.044898714449801e-07, 0.00011711383429524602, 2.592349336438815e-05, -3.97232505555678e-07, 1.6639683950714357e-06, -4.8988786360837366e-08]
velocity: [1.6742729647129125e-12, 0.00037243054756202874, 8.243595712569869e-05, -7.764319139476813e-14, 5.291330747178927e-06, 5.813757133680155e-14]
effort: [0.0, 0.0, 0.0, 0.0, 0.0, 0.0]
---
header: 
  seq: 27276
  stamp: 
    secs: 546
    nsecs: 144000000
  frame_id: ''
name: 
  - joint_1
  - joint_2
  - joint_3
  - joint_4
  - joint_5
  - joint_6
position: [9.044898714449801e-07, 0.00011711383429435784, 2.592349336527633e-05, -3.97232505555678e-07, 1.663968395959614e-06, -4.8988786360837366e-08]
velocity: [1.6742729644735875e-12, 0.00037243054756077974, 8.243595712526544e-05, -7.764319139940222e-14, 5.291330747150033e-06, 5.813757134012722e-14]
effort: [0.0, 0.0, 0.0, 0.0, 0.0, 0.0]
---
header: 
  seq: 27277
  stamp: 
    secs: 546
    nsecs: 164000000
  frame_id: ''
name: 
  - joint_1
  - joint_2
  - joint_3
  - joint_4
  - joint_5
  - joint_6
position: [9.044898714449801e-07, 0.00011711383429524602, 2.592349336527633e-05, -3.97232505555678e-07, 1.663968395959614e-06, -4.8988786360837366e-08]
velocity: [1.6742729703802906e-12, 0.0003724305475638463, 8.243595712603599e-05, -7.76431905963223e-14, 5.2913307472000144e-06, 5.813757074367534e-14]
effort: [0.0, 0.0, 0.0, 0.0, 0.0, 0.0]
---
header: 
  seq: 27278
  stamp: 
    secs: 546
    nsecs: 184000000
  frame_id: ''
name: 
  - joint_1
  - joint_2
  - joint_3
  - joint_4
  - joint_5
  - joint_6
position: [9.044898714449801e-07, 0.00011711383429524602, 2.592349336527633e-05, -3.97232505555678e-07, 1.663968395959614e-06, -4.8988786360837366e-08]
velocity: [1.6742729708528411e-12, 0.0003724305475646897, 8.243595712638201e-05, -7.764319063687351e-14, 5.291330747223813e-06, 5.813757077390293e-14]
effort: [0.0, 0.0, 0.0, 0.0, 0.0, 0.0]
---
header: 
  seq: 5405
  stamp: 
    secs: 546
    nsecs: 196000000
  frame_id: ''
name: 
  - joint_1
  - joint_2
  - joint_3
  - joint_4
  - joint_5
  - joint_6
  - joint_cylinder
  - joint_piston
position: [9.044898714449801e-07, 0.00011711383429524602, 2.592349336527633e-05, -3.97232505555678e-07, 1.663968395959614e-06, -4.8988786360837366e-08, -2.9278458573811506e-05, -0.00014639229286905753]
velocity: [1.6742729708528411e-12, 0.0003724305475646897, 8.243595712638201e-05, -7.764319063687351e-14, 5.291330747223813e-06, 5.813757077390293e-14, -9.310763689117242e-05, -0.00046553818445586214]
effort: [0.0, 0.0, 0.0, 0.0, 0.0, 0.0, 0.0, 0.0]
---
header: 
  seq: 27279
  stamp: 
    secs: 546
    nsecs: 204000000
  frame_id: ''
name: 
  - joint_1
  - joint_2
  - joint_3
  - joint_4
  - joint_5
  - joint_6
position: [9.044898714449801e-07, 0.00011711383429524602, 2.592349336527633e-05, -3.97232505555678e-07, 1.6639683950714357e-06, -4.8988786360837366e-08]
velocity: [1.6742729706061028e-12, 0.00037243054756518475, 8.243595712631511e-05, -7.764319062341087e-14, 5.291330747217687e-06, 5.813757076381558e-14]
effort: [0.0, 0.0, 0.0, 0.0, 0.0, 0.0]
---
header: 
  seq: 27280
  stamp: 
    secs: 546
    nsecs: 224000000
  frame_id: ''
name: 
  - joint_1
  - joint_2
  - joint_3
  - joint_4
  - joint_5
  - joint_6
position: [9.044898714449801e-07, 0.00011711383429524602, 2.592349336527633e-05, -3.97232505555678e-07, 1.6639683950714357e-06, -4.8988786360837366e-08]
velocity: [1.6742729708575102e-12, 0.0003724305475607162, 8.243595712531277e-05, -7.764319063183259e-14, 5.291330747153394e-06, 5.813757077027351e-14]
effort: [0.0, 0.0, 0.0, 0.0, 0.0, 0.0]
---
header: 
  seq: 27281
  stamp: 
    secs: 546
    nsecs: 244000000
  frame_id: ''
name: 
  - joint_1
  - joint_2
  - joint_3
  - joint_4
  - joint_5
  - joint_6
position: [9.044898714449801e-07, 0.00011711383429435784, 2.592349336527633e-05, -3.972325046674996e-07, 1.6639683950714357e-06, -4.8988786360837366e-08]
velocity: [1.6742729708376936e-12, 0.0003724305475667415, 8.243595712656963e-05, -7.764319063808074e-14, 5.291330747233137e-06, 5.813757077484844e-14]
effort: [0.0, 0.0, 0.0, 0.0, 0.0, 0.0]
---
header: 
  seq: 27282
  stamp: 
    secs: 546
    nsecs: 264000000
  frame_id: ''
name: 
  - joint_1
  - joint_2
  - joint_3
  - joint_4
  - joint_5
  - joint_6
position: [9.044898714449801e-07, 0.00011711383429524602, 2.592349336527633e-05, -3.97232505555678e-07, 1.6639683950714357e-06, -4.8988786360837366e-08]
velocity: [1.6742729707949456e-12, 0.00037243054756482837, 8.24359571261476e-05, -7.76431906283913e-14, 5.291330747206194e-06, 5.813757076763217e-14]
effort: [0.0, 0.0, 0.0, 0.0, 0.0, 0.0]
---
header: 
  seq: 27283
  stamp: 
    secs: 546
    nsecs: 284000000
  frame_id: ''
name: 
  - joint_1
  - joint_2
  - joint_3
  - joint_4
  - joint_5
  - joint_6
position: [9.044898723331585e-07, 0.00011711383429524602, 2.592349336527633e-05, -3.97232505555678e-07, 1.6639683950714357e-06, -4.8988786360837366e-08]
velocity: [1.6742729736842438e-12, 0.0003724305475594418, 8.24359571254026e-05, -7.76431922125432e-14, 5.291330747162772e-06, 5.813757194761196e-14]
effort: [0.0, 0.0, 0.0, 0.0, 0.0, 0.0]
---
header: 
  seq: 5406
  stamp: 
    secs: 546
    nsecs: 294000000
  frame_id: ''
name: 
  - joint_1
  - joint_2
  - joint_3
  - joint_4
  - joint_5
  - joint_6
  - joint_cylinder
  - joint_piston
position: [9.044898723331585e-07, 0.00011711383429524602, 2.592349336527633e-05, -3.97232505555678e-07, 1.6639683950714357e-06, -4.8988786360837366e-08, -2.9278458573811506e-05, -0.00014639229286905753]
velocity: [1.6742729736842438e-12, 0.0003724305475594418, 8.24359571254026e-05, -7.76431922125432e-14, 5.291330747162772e-06, 5.813757194761196e-14, -9.310763688986045e-05, -0.00046553818444930223]
effort: [0.0, 0.0, 0.0, 0.0, 0.0, 0.0, 0.0, 0.0]
---
header: 
  seq: 27284
  stamp: 
    secs: 546
    nsecs: 304000000
  frame_id: ''
name: 
  - joint_1
  - joint_2
  - joint_3
  - joint_4
  - joint_5
  - joint_6
position: [9.044898723331585e-07, 0.00011711383429524602, 2.592349336438815e-05, -3.97232505555678e-07, 1.663968395959614e-06, -4.8988786360837366e-08]
velocity: [1.6742729722913256e-12, 0.0003724305475615702, 8.243595712533982e-05, -7.764319214586873e-14, 5.291330747153502e-06, 5.813757189778069e-14]
effort: [0.0, 0.0, 0.0, 0.0, 0.0, 0.0]
---
header: 
  seq: 27285
  stamp: 
    secs: 546
    nsecs: 324000000
  frame_id: ''
name: 
  - joint_1
  - joint_2
  - joint_3
  - joint_4
  - joint_5
  - joint_6
position: [9.044898723331585e-07, 0.00011711383429524602, 2.592349336438815e-05, -3.97232505555678e-07, 1.663968395959614e-06, -4.8988786360837366e-08]
velocity: [1.6742729729951412e-12, 0.00037243054756335835, 8.243595712583877e-05, -7.764319219049708e-14, 5.291330747186733e-06, 5.813757193110994e-14]
effort: [0.0, 0.0, 0.0, 0.0, 0.0, 0.0]
---
header: 
  seq: 27286
  stamp: 
    secs: 546
    nsecs: 344000000
  frame_id: ''
name: 
  - joint_1
  - joint_2
  - joint_3
  - joint_4
  - joint_5
  - joint_6
position: [9.044898723331585e-07, 0.00011711383429435784, 2.592349336527633e-05, -3.97232505555678e-07, 1.663968395959614e-06, -4.8988786360837366e-08]
velocity: [1.6742729732775157e-12, 0.0003724305475589699, 8.243595712499038e-05, -7.764319219793241e-14, 5.291330747133607e-06, 5.813757193669167e-14]
effort: [0.0, 0.0, 0.0, 0.0, 0.0, 0.0]
---
header: 
  seq: 27287
  stamp: 
    secs: 546
    nsecs: 364000000
  frame_id: ''
name: 
  - joint_1
  - joint_2
  - joint_3
  - joint_4
  - joint_5
  - joint_6
position: [9.044898723331585e-07, 0.00011711383429524602, 2.592349336527633e-05, -3.97232505555678e-07, 1.6639683950714357e-06, -4.8988786360837366e-08]
velocity: [1.6742729737104971e-12, 0.00037243054755873163, 8.243595712504053e-05, -7.76431922239155e-14, 5.291330747137564e-06, 5.813757195617884e-14]
effort: [0.0, 0.0, 0.0, 0.0, 0.0, 0.0]
---
header: 
  seq: 27288
  stamp: 
    secs: 546
    nsecs: 384000000
  frame_id: ''
name: 
  - joint_1
  - joint_2
  - joint_3
  - joint_4
  - joint_5
  - joint_6
position: [9.044898723331585e-07, 0.00011711383429524602, 2.592349336527633e-05, -3.97232505555678e-07, 1.6639683950714357e-06, -4.8988786360837366e-08]
velocity: [1.6742729734703395e-12, 0.0003724305475570723, 8.243595712471461e-05, -7.764319219574989e-14, 5.291330747117019e-06, 5.813757193517954e-14]
effort: [0.0, 0.0, 0.0, 0.0, 0.0, 0.0]
---
header: 
  seq: 5407
  stamp: 
    secs: 546
    nsecs: 395000000
  frame_id: ''
name: 
  - joint_1
  - joint_2
  - joint_3
  - joint_4
  - joint_5
  - joint_6
  - joint_cylinder
  - joint_piston
position: [9.044898723331585e-07, 0.00011711383429524602, 2.592349336527633e-05, -3.97232505555678e-07, 1.6639683950714357e-06, -4.8988786360837366e-08, -2.9278458573811506e-05, -0.00014639229286905753]
velocity: [1.6742729734703395e-12, 0.0003724305475570723, 8.243595712471461e-05, -7.764319219574989e-14, 5.291330747117019e-06, 5.813757193517954e-14, -9.310763688926808e-05, -0.0004655381844463404]
effort: [0.0, 0.0, 0.0, 0.0, 0.0, 0.0, 0.0, 0.0]
---
header: 
  seq: 27289
  stamp: 
    secs: 546
    nsecs: 404000000
  frame_id: ''
name: 
  - joint_1
  - joint_2
  - joint_3
  - joint_4
  - joint_5
  - joint_6
position: [9.044898714449801e-07, 0.00011711383429435784, 2.592349336527633e-05, -3.97232505555678e-07, 1.6639683950714357e-06, -4.8988786360837366e-08]
velocity: [1.6742729729192516e-12, 0.0003724305475665364, 8.243595712654334e-05, -7.7643192190459e-14, 5.291330747231565e-06, 5.813757193105318e-14]
effort: [0.0, 0.0, 0.0, 0.0, 0.0, 0.0]
---
header: 
  seq: 27290
  stamp: 
    secs: 546
    nsecs: 424000000
  frame_id: ''
name: 
  - joint_1
  - joint_2
  - joint_3
  - joint_4
  - joint_5
  - joint_6
position: [9.044898714449801e-07, 0.00011711383429524602, 2.592349336527633e-05, -3.9723250644385644e-07, 1.6639683950714357e-06, -4.8988785472658947e-08]
velocity: [1.6742729734237623e-12, 0.0003724305475663319, 8.24359571264418e-05, -7.764319218031005e-14, 5.2913307472247885e-06, 5.813757192358626e-14]
effort: [0.0, 0.0, 0.0, 0.0, 0.0, 0.0]
---
header: 
  seq: 27291
  stamp: 
    secs: 546
    nsecs: 444000000
  frame_id: ''
name: 
  - joint_1
  - joint_2
  - joint_3
  - joint_4
  - joint_5
  - joint_6
position: [9.044898714449801e-07, 0.00011711383429524602, 2.592349336527633e-05, -3.97232505555678e-07, 1.6639683950714357e-06, -4.8988786360837366e-08]
velocity: [1.6742729723225163e-12, 0.0003724305475631412, 8.243595712588132e-05, -7.764319215468929e-14, 5.29133074719004e-06, 5.813757190446891e-14]
effort: [0.0, 0.0, 0.0, 0.0, 0.0, 0.0]
---
header: 
  seq: 27292
  stamp: 
    secs: 546
    nsecs: 464000000
  frame_id: ''
name: 
  - joint_1
  - joint_2
  - joint_3
  - joint_4
  - joint_5
  - joint_6
position: [9.044898714449801e-07, 0.00011711383429524602, 2.592349336527633e-05, -3.97232505555678e-07, 1.663968395959614e-06, -4.8988786360837366e-08]
velocity: [1.6742729723982512e-12, 0.00037243054756417205, 8.24359571260625e-05, -7.764319215683673e-14, 5.2913307472013155e-06, 5.81375719060421e-14]
effort: [0.0, 0.0, 0.0, 0.0, 0.0, 0.0]
---
header: 
  seq: 27293
  stamp: 
    secs: 546
    nsecs: 484000000
  frame_id: ''
name: 
  - joint_1
  - joint_2
  - joint_3
  - joint_4
  - joint_5
  - joint_6
position: [9.044898714449801e-07, 0.00011711383429524602, 2.592349336527633e-05, -3.97232505555678e-07, 1.663968395959614e-06, -4.8988786360837366e-08]
velocity: [1.67427297346115e-12, 0.0003724305475669465, 8.243595712671605e-05, -7.76431922026215e-14, 5.291330747243654e-06, 5.813757194012064e-14]
effort: [0.0, 0.0, 0.0, 0.0, 0.0, 0.0]
---
header: 
  seq: 5408
  stamp: 
    secs: 546
    nsecs: 494000000
  frame_id: ''
name: 
  - joint_1
  - joint_2
  - joint_3
  - joint_4
  - joint_5
  - joint_6
  - joint_cylinder
  - joint_piston
position: [9.044898714449801e-07, 0.00011711383429524602, 2.592349336527633e-05, -3.97232505555678e-07, 1.663968395959614e-06, -4.8988786360837366e-08, -2.9278458573811506e-05, -0.00014639229286905753]
velocity: [1.67427297346115e-12, 0.0003724305475669465, 8.243595712671605e-05, -7.76431922026215e-14, 5.291330747243654e-06, 5.813757194012064e-14, -9.310763689173663e-05, -0.0004655381844586832]
effort: [0.0, 0.0, 0.0, 0.0, 0.0, 0.0, 0.0, 0.0]
---
header: 
  seq: 27294
  stamp: 
    secs: 546
    nsecs: 504000000
  frame_id: ''
name: 
  - joint_1
  - joint_2
  - joint_3
  - joint_4
  - joint_5
  - joint_6
position: [9.044898714449801e-07, 0.00011711383429435784, 2.592349336438815e-05, -3.97232505555678e-07, 1.663968395959614e-06, -4.8988786360837366e-08]
velocity: [1.6742729736474068e-12, 0.00037243054756528016, 8.243595712629381e-05, -7.764319223244499e-14, 5.291330747215898e-06, 5.813757196247044e-14]
effort: [0.0, 0.0, 0.0, 0.0, 0.0, 0.0]
---
header: 
  seq: 27295
  stamp: 
    secs: 546
    nsecs: 524000000
  frame_id: ''
name: 
  - joint_1
  - joint_2
  - joint_3
  - joint_4
  - joint_5
  - joint_6
position: [9.044898714449801e-07, 0.00011711383429524602, 2.592349336527633e-05, -3.97232505555678e-07, 1.6639683950714357e-06, -4.8988786360837366e-08]
velocity: [1.6742729740171355e-12, 0.00037243054756105567, 8.243595712543447e-05, -7.76431922544788e-14, 5.291330747161634e-06, 5.813757197900803e-14]
effort: [0.0, 0.0, 0.0, 0.0, 0.0, 0.0]
---
header: 
  seq: 27296
  stamp: 
    secs: 546
    nsecs: 544000000
  frame_id: ''
name: 
  - joint_1
  - joint_2
  - joint_3
  - joint_4
  - joint_5
  - joint_6
position: [9.044898714449801e-07, 0.00011711383429524602, 2.592349336527633e-05, -3.97232505555678e-07, 1.6639683950714357e-06, -4.8988786360837366e-08]
velocity: [1.6742729736883365e-12, 0.00037243054755752556, 8.243595712492105e-05, -7.76431922340306e-14, 5.291330747131547e-06, 5.813757196364858e-14]
effort: [0.0, 0.0, 0.0, 0.0, 0.0, 0.0]
---
header: 
  seq: 27297
  stamp: 
    secs: 546
    nsecs: 564000000
  frame_id: ''
name: 
  - joint_1
  - joint_2
  - joint_3
  - joint_4
  - joint_5
  - joint_6
position: [9.044898714449801e-07, 0.00011711383429524602, 2.592349336527633e-05, -3.97232505555678e-07, 1.6639683950714357e-06, -4.8988786360837366e-08]
velocity: [1.6742729742511578e-12, 0.0003724305475649029, 8.243595712621916e-05, -7.764319226106553e-14, 5.291330747211507e-06, 5.813757198399683e-14]
effort: [0.0, 0.0, 0.0, 0.0, 0.0, 0.0]
---
header: 
  seq: 27298
  stamp: 
    secs: 546
    nsecs: 584000000
  frame_id: ''
name: 
  - joint_1
  - joint_2
  - joint_3
  - joint_4
  - joint_5
  - joint_6
position: [9.044898714449801e-07, 0.00011711383429524602, 2.592349336527633e-05, -3.97232505555678e-07, 1.6639683950714357e-06, -4.8988786360837366e-08]
velocity: [1.6742729739460255e-12, 0.0003724305475630869, 8.2435957125827e-05, -7.764319225806891e-14, 5.291330747186245e-06, 5.813757198167811e-14]
effort: [0.0, 0.0, 0.0, 0.0, 0.0, 0.0]
---
header: 
  seq: 5409
  stamp: 
    secs: 546
    nsecs: 594000000
  frame_id: ''
name: 
  - joint_1
  - joint_2
  - joint_3
  - joint_4
  - joint_5
  - joint_6
  - joint_cylinder
  - joint_piston
position: [9.044898714449801e-07, 0.00011711383429524602, 2.592349336527633e-05, -3.97232505555678e-07, 1.6639683950714357e-06, -4.8988786360837366e-08, -2.9278458573811506e-05, -0.00014639229286905753]
velocity: [1.6742729739460255e-12, 0.0003724305475630869, 8.2435957125827e-05, -7.764319225806891e-14, 5.291330747186245e-06, 5.813757198167811e-14, -9.310763689077173e-05, -0.00046553818445385864]
effort: [0.0, 0.0, 0.0, 0.0, 0.0, 0.0, 0.0, 0.0]
---
header: 
  seq: 27299
  stamp: 
    secs: 546
    nsecs: 604000000
  frame_id: ''
name: 
  - joint_1
  - joint_2
  - joint_3
  - joint_4
  - joint_5
  - joint_6
position: [9.044898714449801e-07, 0.00011711383429435784, 2.592349336527633e-05, -3.97232505555678e-07, 1.6639683950714357e-06, -4.8988786360837366e-08]
velocity: [1.67427297415818e-12, 0.0003724305475671708, 8.24359571265654e-05, -7.764319225500444e-14, 5.291330747231836e-06, 5.813757197930892e-14]
effort: [0.0, 0.0, 0.0, 0.0, 0.0, 0.0]
---
header: 
  seq: 27300
  stamp: 
    secs: 546
    nsecs: 624000000
  frame_id: ''
name: 
  - joint_1
  - joint_2
  - joint_3
  - joint_4
  - joint_5
  - joint_6
position: [9.044898714449801e-07, 0.00011711383429524602, 2.592349336527633e-05, -3.97232505555678e-07, 1.663968395959614e-06, -4.8988786360837366e-08]
velocity: [1.6742729728175989e-12, 0.00037243054756676643, 8.243595712678398e-05, -7.764319218656919e-14, 5.291330747248966e-06, 5.813757192805378e-14]
effort: [0.0, 0.0, 0.0, 0.0, 0.0, 0.0]
---
header: 
  seq: 27301
  stamp: 
    secs: 546
    nsecs: 644000000
  frame_id: ''
name: 
  - joint_1
  - joint_2
  - joint_3
  - joint_4
  - joint_5
  - joint_6
position: [9.044898714449801e-07, 0.00011711383429524602, 2.592349336527633e-05, -3.97232505555678e-07, 1.663968395959614e-06, -4.8988786360837366e-08]
velocity: [1.6742729729710405e-12, 0.000372430547561164, 8.243595712560729e-05, -7.764319219829635e-14, 5.291330747173994e-06, 5.813757193689109e-14]
effort: [0.0, 0.0, 0.0, 0.0, 0.0, 0.0]
---
header: 
  seq: 27302
  stamp: 
    secs: 546
    nsecs: 664000000
  frame_id: ''
name: 
  - joint_1
  - joint_2
  - joint_3
  - joint_4
  - joint_5
  - joint_6
position: [9.044898714449801e-07, 0.00011711383429524602, 2.592349336527633e-05, -3.97232505555678e-07, 1.663968395959614e-06, -4.8988786360837366e-08]
velocity: [1.674272973232254e-12, 0.0003724305475627725, 8.243595712563358e-05, -7.764319220977315e-14, 5.291330747172909e-06, 5.813757194554203e-14]
effort: [0.0, 0.0, 0.0, 0.0, 0.0, 0.0]
---
header: 
  seq: 27303
  stamp: 
    secs: 546
    nsecs: 684000000
  frame_id: ''
name: 
  - joint_1
  - joint_2
  - joint_3
  - joint_4
  - joint_5
  - joint_6
position: [9.044898714449801e-07, 0.00011711383429524602, 2.592349336438815e-05, -3.972325046674996e-07, 1.663968395959614e-06, -4.8988786360837366e-08]
velocity: [1.6742729707440693e-12, 0.0003724305475640076, 8.243595712598568e-05, -7.764319212147163e-14, 5.291330747196003e-06, 5.813757187933276e-14]
effort: [0.0, 0.0, 0.0, 0.0, 0.0, 0.0]
---
header: 
  seq: 5410
  stamp: 
    secs: 546
    nsecs: 695000000
  frame_id: ''
name: 
  - joint_1
  - joint_2
  - joint_3
  - joint_4
  - joint_5
  - joint_6
  - joint_cylinder
  - joint_piston
position: [9.044898714449801e-07, 0.00011711383429524602, 2.592349336438815e-05, -3.972325046674996e-07, 1.663968395959614e-06, -4.8988786360837366e-08, -2.9278458573811506e-05, -0.00014639229286905753]
velocity: [1.6742729707440693e-12, 0.0003724305475640076, 8.243595712598568e-05, -7.764319212147163e-14, 5.291330747196003e-06, 5.813757187933276e-14, -9.31076368910019e-05, -0.00046553818445500947]
effort: [0.0, 0.0, 0.0, 0.0, 0.0, 0.0, 0.0, 0.0]
---
header: 
  seq: 27304
  stamp: 
    secs: 546
    nsecs: 704000000
  frame_id: ''
name: 
  - joint_1
  - joint_2
  - joint_3
  - joint_4
  - joint_5
  - joint_6
position: [9.044898714449801e-07, 0.00011711383429435784, 2.592349336438815e-05, -3.97232505555678e-07, 1.6639683950714357e-06, -4.8988786360837366e-08]
velocity: [1.674272972941222e-12, 0.0003724305475656728, 8.24359571264244e-05, -7.764319219738913e-14, 5.291330747224897e-06, 5.813757193615623e-14]
effort: [0.0, 0.0, 0.0, 0.0, 0.0, 0.0]
---
header: 
  seq: 27305
  stamp: 
    secs: 546
    nsecs: 724000000
  frame_id: ''
name: 
  - joint_1
  - joint_2
  - joint_3
  - joint_4
  - joint_5
  - joint_6
position: [9.044898714449801e-07, 0.00011711383429524602, 2.592349336527633e-05, -3.97232505555678e-07, 1.6639683950714357e-06, -4.8988786360837366e-08]
velocity: [1.6742729706052676e-12, 0.0003724305475627973, 8.243595712593559e-05, -7.764319204909934e-14, 5.291330747194973e-06, 5.813757182513688e-14]
effort: [0.0, 0.0, 0.0, 0.0, 0.0, 0.0]
---
header: 
  seq: 27306
  stamp: 
    secs: 546
    nsecs: 744000000
  frame_id: ''
name: 
  - joint_1
  - joint_2
  - joint_3
  - joint_4
  - joint_5
  - joint_6
position: [9.044898714449801e-07, 0.00011711383429524602, 2.592349336527633e-05, -3.97232505555678e-07, 1.6639683950714357e-06, -4.8988786360837366e-08]
velocity: [1.6742729696435732e-12, 0.00037243054756174, 8.24359571258894e-05, -7.764319199178171e-14, 5.291330747193726e-06, 5.813757178243913e-14]
effort: [0.0, 0.0, 0.0, 0.0, 0.0, 0.0]
---
header: 
  seq: 27307
  stamp: 
    secs: 546
    nsecs: 764000000
  frame_id: ''
name: 
  - joint_1
  - joint_2
  - joint_3
  - joint_4
  - joint_5
  - joint_6
position: [9.044898714449801e-07, 0.00011711383429524602, 2.592349336527633e-05, -3.97232505555678e-07, 1.6639683950714357e-06, -4.8988786360837366e-08]
velocity: [1.674272969218538e-12, 0.0003724305475684956, 8.243595712724314e-05, -7.76431919684706e-14, 5.291330747279324e-06, 5.813757176487978e-14]
effort: [0.0, 0.0, 0.0, 0.0, 0.0, 0.0]
---
header: 
  seq: 27308
  stamp: 
    secs: 546
    nsecs: 784000000
  frame_id: ''
name: 
  - joint_1
  - joint_2
  - joint_3
  - joint_4
  - joint_5
  - joint_6
position: [9.044898714449801e-07, 0.00011711383429524602, 2.592349336527633e-05, -3.97232505555678e-07, 1.663968395959614e-06, -4.8988786360837366e-08]
velocity: [1.6742729693814334e-12, 0.0003724305475581584, 8.243595712487909e-05, -7.764319196718849e-14, 5.291330747126831e-06, 5.813757176417282e-14]
effort: [0.0, 0.0, 0.0, 0.0, 0.0, 0.0]
---
header: 
  seq: 5411
  stamp: 
    secs: 546
    nsecs: 794000000
  frame_id: ''
name: 
  - joint_1
  - joint_2
  - joint_3
  - joint_4
  - joint_5
  - joint_6
  - joint_cylinder
  - joint_piston
position: [9.044898714449801e-07, 0.00011711383429524602, 2.592349336527633e-05, -3.97232505555678e-07, 1.663968395959614e-06, -4.8988786360837366e-08, -2.9278458573811506e-05, -0.00014639229286905753]
velocity: [1.6742729693814334e-12, 0.0003724305475581584, 8.243595712487909e-05, -7.764319196718849e-14, 5.291330747126831e-06, 5.813757176417282e-14, -9.31076368895396e-05, -0.00046553818444769804]
effort: [0.0, 0.0, 0.0, 0.0, 0.0, 0.0, 0.0, 0.0]
---
header: 
  seq: 27309
  stamp: 
    secs: 546
    nsecs: 804000000
  frame_id: ''
name: 
  - joint_1
  - joint_2
  - joint_3
  - joint_4
  - joint_5
  - joint_6
position: [9.044898714449801e-07, 0.00011711383429435784, 2.592349336527633e-05, -3.97232505555678e-07, 1.663968395959614e-06, -4.8988786360837366e-08]
velocity: [1.6742729687966939e-12, 0.0003724305475638099, 8.243595712577545e-05, -7.764319192102235e-14, 5.291330747181095e-06, 5.813757172960833e-14]
effort: [0.0, 0.0, 0.0, 0.0, 0.0, 0.0]
---
header: 
  seq: 27310
  stamp: 
    secs: 546
    nsecs: 824000000
  frame_id: ''
name: 
  - joint_1
  - joint_2
  - joint_3
  - joint_4
  - joint_5
  - joint_6
position: [9.044898714449801e-07, 0.00011711383429524602, 2.592349336527633e-05, -3.97232505555678e-07, 1.663968395959614e-06, -4.8988786360837366e-08]
velocity: [1.674272969172463e-12, 0.00037243054756113514, 8.243595712552159e-05, -7.764319194529484e-14, 5.291330747168139e-06, 5.813757174775737e-14]
effort: [0.0, 0.0, 0.0, 0.0, 0.0, 0.0]
---
header: 
  seq: 27311
  stamp: 
    secs: 546
    nsecs: 844000000
  frame_id: ''
name: 
  - joint_1
  - joint_2
  - joint_3
  - joint_4
  - joint_5
  - joint_6
position: [9.044898714449801e-07, 0.00011711383429524602, 2.592349336527633e-05, -3.97232505555678e-07, 1.663968395959614e-06, -4.8988786360837366e-08]
velocity: [1.6742729690398396e-12, 0.0003724305475624917, 8.243595712574076e-05, -7.764319194753752e-14, 5.291330747181312e-06, 5.813757174937375e-14]
effort: [0.0, 0.0, 0.0, 0.0, 0.0, 0.0]
---
header: 
  seq: 27312
  stamp: 
    secs: 546
    nsecs: 864000000
  frame_id: ''
name: 
  - joint_1
  - joint_2
  - joint_3
  - joint_4
  - joint_5
  - joint_6
position: [9.044898714449801e-07, 0.00011711383429435784, 2.592349336527633e-05, -3.97232505555678e-07, 1.6639683950714357e-06, -4.8988786360837366e-08]
velocity: [1.6742729646997214e-12, 0.00037243054756168093, 8.243595712543572e-05, -7.7643191411775e-14, 5.291330747160441e-06, 5.813757134947566e-14]
effort: [0.0, 0.0, 0.0, 0.0, 0.0, 0.0]
---
header: 
  seq: 27313
  stamp: 
    secs: 546
    nsecs: 884000000
  frame_id: ''
name: 
  - joint_1
  - joint_2
  - joint_3
  - joint_4
  - joint_5
  - joint_6
position: [9.044898714449801e-07, 0.00011711383429524602, 2.592349336438815e-05, -3.97232505555678e-07, 1.6639683950714357e-06, -4.8988786360837366e-08]
velocity: [1.6742729637255597e-12, 0.00037243054756911303, 8.243595712707915e-05, -7.764319136105719e-14, 5.291330747265446e-06, 5.813757131155329e-14]
effort: [0.0, 0.0, 0.0, 0.0, 0.0, 0.0]
---
header: 
  seq: 5412
  stamp: 
    secs: 546
    nsecs: 894000000
  frame_id: ''
name: 
  - joint_1
  - joint_2
  - joint_3
  - joint_4
  - joint_5
  - joint_6
  - joint_cylinder
  - joint_piston
position: [9.044898714449801e-07, 0.00011711383429524602, 2.592349336438815e-05, -3.97232505555678e-07, 1.6639683950714357e-06, -4.8988786360837366e-08, -2.9278458573811506e-05, -0.00014639229286905753]
velocity: [1.6742729637255597e-12, 0.00037243054756911303, 8.243595712707915e-05, -7.764319136105719e-14, 5.291330747265446e-06, 5.813757131155329e-14, -9.310763689227826e-05, -0.0004655381844613913]
effort: [0.0, 0.0, 0.0, 0.0, 0.0, 0.0, 0.0, 0.0]
---
header: 
  seq: 27314
  stamp: 
    secs: 546
    nsecs: 904000000
  frame_id: ''
name: 
  - joint_1
  - joint_2
  - joint_3
  - joint_4
  - joint_5
  - joint_6
position: [9.044898714449801e-07, 0.00011711383429524602, 2.592349336527633e-05, -3.97232505555678e-07, 1.6639683950714357e-06, -4.8988786360837366e-08]
velocity: [1.6742729635083136e-12, 0.0003724305475652201, 8.243595712648924e-05, -7.764319136432814e-14, 5.2913307472304805e-06, 5.813757131389228e-14]
effort: [0.0, 0.0, 0.0, 0.0, 0.0, 0.0]
---
header: 
  seq: 27315
  stamp: 
    secs: 546
    nsecs: 924000000
  frame_id: ''
name: 
  - joint_1
  - joint_2
  - joint_3
  - joint_4
  - joint_5
  - joint_6
position: [9.044898714449801e-07, 0.00011711383429524602, 2.592349336527633e-05, -3.97232505555678e-07, 1.6639683950714357e-06, -4.8988786360837366e-08]
velocity: [1.6742729644695051e-12, 0.0003724305475652477, 8.243595712653271e-05, -7.764319139917643e-14, 5.291330747233679e-06, 5.813757134013763e-14]
effort: [0.0, 0.0, 0.0, 0.0, 0.0, 0.0]
---
header: 
  seq: 27316
  stamp: 
    secs: 546
    nsecs: 944000000
  frame_id: ''
name: 
  - joint_1
  - joint_2
  - joint_3
  - joint_4
  - joint_5
  - joint_6
position: [9.044898714449801e-07, 0.00011711383429524602, 2.592349336527633e-05, -3.972325046674996e-07, 1.663968395959614e-06, -4.8988786360837366e-08]
velocity: [1.6742729656323777e-12, 0.00037243054756054485, 8.243595712537712e-05, -7.76431914652801e-14, 5.291330747158706e-06, 5.813757138952343e-14]
effort: [0.0, 0.0, 0.0, 0.0, 0.0, 0.0]
---
header: 
  seq: 27317
  stamp: 
    secs: 546
    nsecs: 964000000
  frame_id: ''
name: 
  - joint_1
  - joint_2
  - joint_3
  - joint_4
  - joint_5
  - joint_6
position: [9.044898714449801e-07, 0.00011711383429435784, 2.592349336527633e-05, -3.97232505555678e-07, 1.663968395959614e-06, -4.8988786360837366e-08]
velocity: [1.6742729641028078e-12, 0.0003724305475635471, 8.24359571257136e-05, -7.764319138197506e-14, 5.291330747176867e-06, 5.813757132729196e-14]
effort: [0.0, 0.0, 0.0, 0.0, 0.0, 0.0]
---
header: 
  seq: 27318
  stamp: 
    secs: 546
    nsecs: 984000000
  frame_id: ''
name: 
  - joint_1
  - joint_2
  - joint_3
  - joint_4
  - joint_5
  - joint_6
position: [9.044898714449801e-07, 0.00011711383429524602, 2.592349336527633e-05, -3.97232505555678e-07, 1.663968395959614e-06, -4.8988786360837366e-08]
velocity: [1.6742729701536189e-12, 0.0003724305475662314, 8.243595712644039e-05, -7.76431906060807e-14, 5.29133074722468e-06, 5.813757075105056e-14]
effort: [0.0, 0.0, 0.0, 0.0, 0.0, 0.0]
---
header: 
  seq: 5413
  stamp: 
    secs: 547
    nsecs:   1000000
  frame_id: ''
name: 
  - joint_1
  - joint_2
  - joint_3
  - joint_4
  - joint_5
  - joint_6
  - joint_cylinder
  - joint_piston
position: [9.044898714449801e-07, 0.00011711383429524602, 2.592349336527633e-05, -3.97232505555678e-07, 1.663968395959614e-06, -4.8988786360837366e-08, -2.9278458573811506e-05, -0.00014639229286905753]
velocity: [1.6742729701536189e-12, 0.0003724305475662314, 8.243595712644039e-05, -7.76431906060807e-14, 5.29133074722468e-06, 5.813757075105056e-14, -9.310763689155785e-05, -0.00046553818445778925]
effort: [0.0, 0.0, 0.0, 0.0, 0.0, 0.0, 0.0, 0.0]
---
header: 
  seq: 27319
  stamp: 
    secs: 547
    nsecs:   4000000
  frame_id: ''
name: 
  - joint_1
  - joint_2
  - joint_3
  - joint_4
  - joint_5
  - joint_6
position: [9.044898714449801e-07, 0.00011711383429524602, 2.592349336527633e-05, -3.97232505555678e-07, 1.663968395959614e-06, -4.8988786360837366e-08]
velocity: [1.6742729699922603e-12, 0.0003724305475575237, 8.24359571247911e-05, -7.764319058685792e-14, 5.291330747121898e-06, 5.813757073668835e-14]
effort: [0.0, 0.0, 0.0, 0.0, 0.0, 0.0]
---
header: 
  seq: 27320
  stamp: 
    secs: 547
    nsecs:  24000000
  frame_id: ''
name: 
  - joint_1
  - joint_2
  - joint_3
  - joint_4
  - joint_5
  - joint_6
position: [9.044898714449801e-07, 0.00011711383429524602, 2.592349336527633e-05, -3.97232505555678e-07, 1.6639683950714357e-06, -4.8988786360837366e-08]
velocity: [1.6742729712704757e-12, 0.0003724305475593544, 8.243595712501049e-05, -7.764319063734939e-14, 5.291330747133932e-06, 5.813757077450611e-14]
effort: [0.0, 0.0, 0.0, 0.0, 0.0, 0.0]
---
header: 
  seq: 27321
  stamp: 
    secs: 547
    nsecs:  44000000
  frame_id: ''
name: 
  - joint_1
  - joint_2
  - joint_3
  - joint_4
  - joint_5
  - joint_6
position: [9.044898714449801e-07, 0.00011711383429524602, 2.592349336527633e-05, -3.97232505555678e-07, 1.6639683950714357e-06, -4.8988786360837366e-08]
velocity: [1.674272970848738e-12, 0.0003724305475654936, 8.243595712654751e-05, -7.764319062237259e-14, 5.2913307472343294e-06, 5.81375707632577e-14]
effort: [0.0, 0.0, 0.0, 0.0, 0.0, 0.0]
---
header: 
  seq: 27322
  stamp: 
    secs: 547
    nsecs:  64000000
  frame_id: ''
name: 
  - joint_1
  - joint_2
  - joint_3
  - joint_4
  - joint_5
  - joint_6
position: [9.044898714449801e-07, 0.00011711383429435784, 2.592349336438815e-05, -3.97232505555678e-07, 1.6639683950714357e-06, -4.8988786360837366e-08]
velocity: [1.6742729708845682e-12, 0.0003724305475682804, 8.243595712704738e-05, -7.764319062165306e-14, 5.29133074726485e-06, 5.813757076253028e-14]
effort: [0.0, 0.0, 0.0, 0.0, 0.0, 0.0]
---
header: 
  seq: 27323
  stamp: 
    secs: 547
    nsecs:  84000000
  frame_id: ''
name: 
  - joint_1
  - joint_2
  - joint_3
  - joint_4
  - joint_5
  - joint_6
position: [9.044898723331585e-07, 0.00011711383429524602, 2.592349336438815e-05, -3.97232505555678e-07, 1.6639683950714357e-06, -4.8988786360837366e-08]
velocity: [1.6742729732395411e-12, 0.0003724305475689525, 8.243595712696135e-05, -7.764319219673806e-14, 5.291330747257477e-06, 5.813757193581672e-14]
effort: [0.0, 0.0, 0.0, 0.0, 0.0, 0.0]
---
header: 
  seq: 5414
  stamp: 
    secs: 547
    nsecs:  95000000
  frame_id: ''
name: 
  - joint_1
  - joint_2
  - joint_3
  - joint_4
  - joint_5
  - joint_6
  - joint_cylinder
  - joint_piston
position: [9.044898723331585e-07, 0.00011711383429524602, 2.592349336438815e-05, -3.97232505555678e-07, 1.6639683950714357e-06, -4.8988786360837366e-08, -2.9278458573811506e-05, -0.00014639229286905753]
velocity: [1.6742729732395411e-12, 0.0003724305475689525, 8.243595712696135e-05, -7.764319219673806e-14, 5.291330747257477e-06, 5.813757193581672e-14, -9.310763689223813e-05, -0.0004655381844611906]
effort: [0.0, 0.0, 0.0, 0.0, 0.0, 0.0, 0.0, 0.0]
---
header: 
  seq: 27324
  stamp: 
    secs: 547
    nsecs: 104000000
  frame_id: ''
name: 
  - joint_1
  - joint_2
  - joint_3
  - joint_4
  - joint_5
  - joint_6
position: [9.044898723331585e-07, 0.00011711383429524602, 2.592349336527633e-05, -3.97232505555678e-07, 1.663968395959614e-06, -4.8988786360837366e-08]
velocity: [1.6742729736437071e-12, 0.00037243054755915837, 8.243595712518884e-05, -7.764319221510341e-14, 5.291330747147864e-06, 5.81375719494684e-14]
effort: [0.0, 0.0, 0.0, 0.0, 0.0, 0.0]
---
header: 
  seq: 27325
  stamp: 
    secs: 547
    nsecs: 124000000
  frame_id: ''
name: 
  - joint_1
  - joint_2
  - joint_3
  - joint_4
  - joint_5
  - joint_6
position: [9.044898723331585e-07, 0.00011711383429524602, 2.592349336527633e-05, -3.97232505555678e-07, 1.663968395959614e-06, -4.8988786360837366e-08]
velocity: [1.6742729731402282e-12, 0.00037243054756455813, 8.243595712639014e-05, -7.764319216276092e-14, 5.291330747224734e-06, 5.81375719105882e-14]
effort: [0.0, 0.0, 0.0, 0.0, 0.0, 0.0]
---
header: 
  seq: 27326
  stamp: 
    secs: 547
    nsecs: 144000000
  frame_id: ''
name: 
  - joint_1
  - joint_2
  - joint_3
  - joint_4
  - joint_5
  - joint_6
position: [9.044898723331585e-07, 0.00011711383429524602, 2.592349336527633e-05, -3.97232505555678e-07, 1.663968395959614e-06, -4.8988786360837366e-08]
velocity: [1.6742729739927503e-12, 0.00037243054755921795, 8.243595712521796e-05, -7.764319223009871e-14, 5.291330747149816e-06, 5.813757196081505e-14]
effort: [0.0, 0.0, 0.0, 0.0, 0.0, 0.0]
---
header: 
  seq: 27327
  stamp: 
    secs: 547
    nsecs: 164000000
  frame_id: ''
name: 
  - joint_1
  - joint_2
  - joint_3
  - joint_4
  - joint_5
  - joint_6
position: [9.044898723331585e-07, 0.00011711383429435784, 2.592349336527633e-05, -3.97232505555678e-07, 1.663968395959614e-06, -4.8988786360837366e-08]
velocity: [1.6742729726372351e-12, 0.0003724305475630633, 8.243595712565473e-05, -7.764319217526392e-14, 5.291330747173289e-06, 5.813757191969881e-14]
effort: [0.0, 0.0, 0.0, 0.0, 0.0, 0.0]
---
header: 
  seq: 27328
  stamp: 
    secs: 547
    nsecs: 184000000
  frame_id: ''
name: 
  - joint_1
  - joint_2
  - joint_3
  - joint_4
  - joint_5
  - joint_6
position: [9.044898723331585e-07, 0.00011711383429524602, 2.592349336527633e-05, -3.97232505555678e-07, 1.6639683950714357e-06, -4.8988785472658947e-08]
velocity: [1.674272973001997e-12, 0.00037243054756714894, 8.243595712668006e-05, -7.764319217366777e-14, 5.291330747240509e-06, 5.813757191852867e-14]
effort: [0.0, 0.0, 0.0, 0.0, 0.0, 0.0]
---
header: 
  seq: 5415
  stamp: 
    secs: 547
    nsecs: 194000000
  frame_id: ''
name: 
  - joint_1
  - joint_2
  - joint_3
  - joint_4
  - joint_5
  - joint_6
  - joint_cylinder
  - joint_piston
position: [9.044898723331585e-07, 0.00011711383429524602, 2.592349336527633e-05, -3.97232505555678e-07, 1.6639683950714357e-06, -4.8988785472658947e-08, -2.9278458573811506e-05, -0.00014639229286905753]
velocity: [1.674272973001997e-12, 0.00037243054756714894, 8.243595712668006e-05, -7.764319217366777e-14, 5.291330747240509e-06, 5.813757191852867e-14, -9.310763689178724e-05, -0.0004655381844589362]
effort: [0.0, 0.0, 0.0, 0.0, 0.0, 0.0, 0.0, 0.0]
---
header: 
  seq: 27329
  stamp: 
    secs: 547
    nsecs: 204000000
  frame_id: ''
name: 
  - joint_1
  - joint_2
  - joint_3
  - joint_4
  - joint_5
  - joint_6
position: [9.044898714449801e-07, 0.00011711383429524602, 2.592349336527633e-05, -3.97232505555678e-07, 1.6639683950714357e-06, -4.8988786360837366e-08]
velocity: [1.6742729731578993e-12, 0.0003724305475631948, 8.24359571260709e-05, -7.764319219626434e-14, 5.291330747203972e-06, 5.81375719354217e-14]
effort: [0.0, 0.0, 0.0, 0.0, 0.0, 0.0]
---
header: 
  seq: 27330
  stamp: 
    secs: 547
    nsecs: 224000000
  frame_id: ''
name: 
  - joint_1
  - joint_2
  - joint_3
  - joint_4
  - joint_5
  - joint_6
position: [9.044898714449801e-07, 0.00011711383429435784, 2.592349336527633e-05, -3.97232505555678e-07, 1.6639683950714357e-06, -4.8988786360837366e-08]
velocity: [1.6742729727502065e-12, 0.0003724305475693672, 8.243595712708555e-05, -7.764319218620194e-14, 5.291330747265663e-06, 5.813757192802923e-14]
effort: [0.0, 0.0, 0.0, 0.0, 0.0, 0.0]
---
header: 
  seq: 27331
  stamp: 
    secs: 547
    nsecs: 244000000
  frame_id: ''
name: 
  - joint_1
  - joint_2
  - joint_3
  - joint_4
  - joint_5
  - joint_6
position: [9.044898714449801e-07, 0.00011711383429524602, 2.592349336527633e-05, -3.97232505555678e-07, 1.6639683950714357e-06, -4.8988786360837366e-08]
velocity: [1.67427297359438e-12, 0.000372430547562528, 8.243595712566508e-05, -7.76431922210929e-14, 5.2913307471755115e-06, 5.813757195407961e-14]
effort: [0.0, 0.0, 0.0, 0.0, 0.0, 0.0]
---
header: 
  seq: 27332
  stamp: 
    secs: 547
    nsecs: 264000000
  frame_id: ''
name: 
  - joint_1
  - joint_2
  - joint_3
  - joint_4
  - joint_5
  - joint_6
position: [9.044898714449801e-07, 0.00011711383429524602, 2.592349336438815e-05, -3.97232505555678e-07, 1.663968395959614e-06, -4.8988786360837366e-08]
velocity: [1.6742729733499346e-12, 0.00037243054756201785, 8.243595712581584e-05, -7.764319223141703e-14, 5.2913307471876545e-06, 5.813757196175387e-14]
effort: [0.0, 0.0, 0.0, 0.0, 0.0, 0.0]
---
header: 
  seq: 27333
  stamp: 
    secs: 547
    nsecs: 284000000
  frame_id: ''
name: 
  - joint_1
  - joint_2
  - joint_3
  - joint_4
  - joint_5
  - joint_6
position: [9.044898714449801e-07, 0.00011711383429524602, 2.592349336438815e-05, -3.97232505555678e-07, 1.663968395959614e-06, -4.8988786360837366e-08]
velocity: [1.6742729745836937e-12, 0.00037243054756668116, 8.243595712667182e-05, -7.764319227584466e-14, 5.2913307472410515e-06, 5.813757199495543e-14]
effort: [0.0, 0.0, 0.0, 0.0, 0.0, 0.0]
---
header: 
  seq: 5416
  stamp: 
    secs: 547
    nsecs: 295000000
  frame_id: ''
name: 
  - joint_1
  - joint_2
  - joint_3
  - joint_4
  - joint_5
  - joint_6
  - joint_cylinder
  - joint_piston
position: [9.044898714449801e-07, 0.00011711383429524602, 2.592349336438815e-05, -3.97232505555678e-07, 1.663968395959614e-06, -4.8988786360837366e-08, -2.9278458573811506e-05, -0.00014639229286905753]
velocity: [1.6742729745836937e-12, 0.00037243054756668116, 8.243595712667182e-05, -7.764319227584466e-14, 5.2913307472410515e-06, 5.813757199495543e-14, -9.310763689167029e-05, -0.00046553818445835147]
effort: [0.0, 0.0, 0.0, 0.0, 0.0, 0.0, 0.0, 0.0]
---
header: 
  seq: 27334
  stamp: 
    secs: 547
    nsecs: 304000000
  frame_id: ''
name: 
  - joint_1
  - joint_2
  - joint_3
  - joint_4
  - joint_5
  - joint_6
position: [9.044898714449801e-07, 0.00011711383429524602, 2.592349336527633e-05, -3.97232505555678e-07, 1.663968395959614e-06, -4.8988786360837366e-08]
velocity: [1.6742729731568233e-12, 0.0003724305475654346, 8.243595712643481e-05, -7.76431922238547e-14, 5.2913307472258185e-06, 5.813757195603548e-14]
effort: [0.0, 0.0, 0.0, 0.0, 0.0, 0.0]
---
header: 
  seq: 27335
  stamp: 
    secs: 547
    nsecs: 324000000
  frame_id: ''
name: 
  - joint_1
  - joint_2
  - joint_3
  - joint_4
  - joint_5
  - joint_6
position: [9.044898714449801e-07, 0.00011711383429435784, 2.592349336527633e-05, -3.97232505555678e-07, 1.663968395959614e-06, -4.8988786360837366e-08]
velocity: [1.6742729720079377e-12, 0.00037243054756922215, 8.243595712702879e-05, -7.764319212226935e-14, 5.291330747261868e-06, 5.813757188009793e-14]
effort: [0.0, 0.0, 0.0, 0.0, 0.0, 0.0]
---
header: 
  seq: 27336
  stamp: 
    secs: 547
    nsecs: 344000000
  frame_id: ''
name: 
  - joint_1
  - joint_2
  - joint_3
  - joint_4
  - joint_5
  - joint_6
position: [9.044898714449801e-07, 0.00011711383429524602, 2.592349336527633e-05, -3.97232505555678e-07, 1.6639683950714357e-06, -4.8988786360837366e-08]
velocity: [1.6742729740348353e-12, 0.00037243054756199746, 8.243595712559022e-05, -7.764319225183913e-14, 5.291330747171446e-06, 5.813757197703069e-14]
effort: [0.0, 0.0, 0.0, 0.0, 0.0, 0.0]
---
header: 
  seq: 27337
  stamp: 
    secs: 547
    nsecs: 364000000
  frame_id: ''
name: 
  - joint_1
  - joint_2
  - joint_3
  - joint_4
  - joint_5
  - joint_6
position: [9.044898714449801e-07, 0.00011711383429524602, 2.592349336527633e-05, -3.97232505555678e-07, 1.6639683950714357e-06, -4.8988786360837366e-08]
velocity: [1.6742729737189612e-12, 0.0003724305475596029, 8.243595712542233e-05, -7.764319223980016e-14, 5.291330747163965e-06, 5.813757196787289e-14]
effort: [0.0, 0.0, 0.0, 0.0, 0.0, 0.0]
---
header: 
  seq: 27338
  stamp: 
    secs: 547
    nsecs: 384000000
  frame_id: ''
name: 
  - joint_1
  - joint_2
  - joint_3
  - joint_4
  - joint_5
  - joint_6
position: [9.044898714449801e-07, 0.00011711383429524602, 2.592349336527633e-05, -3.9723250644385644e-07, 1.6639683950714357e-06, -4.8988786360837366e-08]
velocity: [1.6742729738137877e-12, 0.00037243054756615256, 8.243595712641784e-05, -7.76431922357629e-14, 5.291330747223108e-06, 5.813757196506542e-14]
effort: [0.0, 0.0, 0.0, 0.0, 0.0, 0.0]
---
header: 
  seq: 5417
  stamp: 
    secs: 547
    nsecs: 394000000
  frame_id: ''
name: 
  - joint_1
  - joint_2
  - joint_3
  - joint_4
  - joint_5
  - joint_6
  - joint_cylinder
  - joint_piston
position: [9.044898714449801e-07, 0.00011711383429524602, 2.592349336527633e-05, -3.9723250644385644e-07, 1.6639683950714357e-06, -4.8988786360837366e-08, -2.9278458573811506e-05, -0.00014639229286905753]
velocity: [1.6742729738137877e-12, 0.00037243054756615256, 8.243595712641784e-05, -7.76431922357629e-14, 5.291330747223108e-06, 5.813757196506542e-14, -9.310763689153814e-05, -0.0004655381844576907]
effort: [0.0, 0.0, 0.0, 0.0, 0.0, 0.0, 0.0, 0.0]
---
header: 
  seq: 27339
  stamp: 
    secs: 547
    nsecs: 404000000
  frame_id: ''
name: 
  - joint_1
  - joint_2
  - joint_3
  - joint_4
  - joint_5
  - joint_6
position: [9.044898714449801e-07, 0.00011711383429524602, 2.592349336527633e-05, -3.97232505555678e-07, 1.6639683950714357e-06, -4.8988786360837366e-08]
velocity: [1.6742729736160503e-12, 0.00037243054756456155, 8.243595712632487e-05, -7.764319223115754e-14, 5.2913307472196385e-06, 5.813757196145724e-14]
effort: [0.0, 0.0, 0.0, 0.0, 0.0, 0.0]
---
header: 
  seq: 27340
  stamp: 
    secs: 547
    nsecs: 424000000
  frame_id: ''
name: 
  - joint_1
  - joint_2
  - joint_3
  - joint_4
  - joint_5
  - joint_6
position: [9.044898714449801e-07, 0.00011711383429435784, 2.592349336527633e-05, -3.97232505555678e-07, 1.6639683950714357e-06, -4.8988786360837366e-08]
velocity: [1.6742729732835849e-12, 0.0003724305475647646, 8.243595712624404e-05, -7.764319219084937e-14, 5.291330747213404e-06, 5.81375719314597e-14]
effort: [0.0, 0.0, 0.0, 0.0, 0.0, 0.0]
---
header: 
  seq: 27341
  stamp: 
    secs: 547
    nsecs: 444000000
  frame_id: ''
name: 
  - joint_1
  - joint_2
  - joint_3
  - joint_4
  - joint_5
  - joint_6
position: [9.044898714449801e-07, 0.00011711383429524602, 2.592349336527633e-05, -3.97232505555678e-07, 1.663968395959614e-06, -4.8988786360837366e-08]
velocity: [1.6742729726799795e-12, 0.0003724305475645535, 8.243595712606358e-05, -7.764319217547174e-14, 5.291330747200394e-06, 5.813757191991897e-14]
effort: [0.0, 0.0, 0.0, 0.0, 0.0, 0.0]
---
header: 
  seq: 27342
  stamp: 
    secs: 547
    nsecs: 464000000
  frame_id: ''
name: 
  - joint_1
  - joint_2
  - joint_3
  - joint_4
  - joint_5
  - joint_6
position: [9.044898714449801e-07, 0.00011711383429524602, 2.592349336438815e-05, -3.97232505555678e-07, 1.663968395959614e-06, -4.8988786360837366e-08]
velocity: [1.6742729731622616e-12, 0.00037243054756237607, 8.243595712575344e-05, -7.764319218907968e-14, 5.291330747182342e-06, 5.813757193002188e-14]
effort: [0.0, 0.0, 0.0, 0.0, 0.0, 0.0]
---
header: 
  seq: 27343
  stamp: 
    secs: 547
    nsecs: 484000000
  frame_id: ''
name: 
  - joint_1
  - joint_2
  - joint_3
  - joint_4
  - joint_5
  - joint_6
position: [9.044898714449801e-07, 0.00011711383429524602, 2.592349336527633e-05, -3.97232505555678e-07, 1.663968395959614e-06, -4.8988786360837366e-08]
velocity: [1.6742729727529994e-12, 0.00037243054756534814, 8.243595712621103e-05, -7.764319220479174e-14, 5.291330747209881e-06, 5.813757194169861e-14]
effort: [0.0, 0.0, 0.0, 0.0, 0.0, 0.0]
---
header: 
  seq: 27344
  stamp: 
    secs: 547
    nsecs: 504000000
  frame_id: ''
